{
  "query": {
    "address": "1280 Main Street West, Hamilton, Ontario L8S 4L8",
    "radius_km": 30,
    "timestamp_utc": "2026-01-10T17:25:08.011455Z"
  },
  "count": 60,
  "physicians": [
    {
      "name": "Main West Clinic",
      "address": "1685 Main St W #135, Hamilton, ON L8S 0A2, Canada",
      "phone": "(905) 521-2222",
      "lat": 43.2569482,
      "lng": -79.9339617,
      "place_id": "ChIJ-UY7xLuELIgR080BPLFPLEk",
      "business_status": "OPERATIONAL",
      "types": [
        "doctor",
        "health",
        "point_of_interest",
        "establishment"
      ]
    },
    {
      "name": "Dermetics Cosmetic Dermatology",
      "address": "3305 Harvester Rd units 8-9, Burlington, ON L7N 3N2, Canada",
      "phone": "(905) 336-9624",
      "lat": 43.358031,
      "lng": -79.79248369999999,
      "place_id": "ChIJpejH2rZhK4gRvyI2OIT2AdU",
      "business_status": "OPERATIONAL",
      "types": [
        "spa",
        "doctor",
        "health",
        "point_of_interest",
        "establishment"
      ]
    },
    {
      "name": "Mountain Medical Walk-In Clinic",
      "address": "880 Upper Wentworth St, Hamilton, ON L9A 5H2, Canada",
      "phone": "(905) 575-0808",
      "lat": 43.22130689999999,
      "lng": -79.8635614,
      "place_id": "ChIJ463NDE2aLIgRxhGM5gbSc6I",
      "business_status": "OPERATIONAL",
      "types": [
        "doctor",
        "health",
        "point_of_interest",
        "establishment"
      ]
    },
    {
      "name": "Dundurn WalkIn Medical Centre Inc.",
      "address": "50 Dundurn St S, Hamilton, ON L8P 4W3, Canada",
      "phone": "(905) 529-4040",
      "lat": 43.2613722,
      "lng": -79.8894246,
      "place_id": "ChIJCSynd2SbLIgRNKaXBg2u1CU",
      "business_status": "OPERATIONAL",
      "types": [
        "hospital",
        "doctor",
        "health",
        "point_of_interest",
        "establishment"
      ]
    },
    {
      "name": "Burlington Medical Centre (MedCare Clinics) - Walk-In Clinic, Family Doctor & Blood Testing Lab",
      "address": "inside Fortinos, 2025 Guelph Line, Burlington, ON L7P 4M8, Canada",
      "phone": "(905) 681-7755",
      "lat": 43.3659271,
      "lng": -79.8229065,
      "place_id": "ChIJnbRzWY9hK4gR0INqu3w6ZTo",
      "business_status": "OPERATIONAL",
      "types": [
        "doctor",
        "health",
        "point_of_interest",
        "establishment"
      ]
    },
    {
      "name": "Halton McMaster Family Health Centre",
      "address": "1221 Lakeshore Rd. #103, Burlington, ON L7S 0A1, Canada",
      "phone": "(905) 333-8222",
      "lat": 43.3152696,
      "lng": -79.8025712,
      "place_id": "ChIJl9APCLhhK4gRuK709I8YwSw",
      "business_status": "OPERATIONAL",
      "types": [
        "doctor",
        "health",
        "point_of_interest",
        "establishment"
      ]
    },
    {
      "name": "Kerr Street Medical Centre",
      "address": "344 Kerr St, Oakville, ON L6K 3B8, Canada",
      "phone": "(905) 845-8000",
      "lat": 43.443877,
      "lng": -79.682236,
      "place_id": "ChIJYz4Jy_BcK4gRS2O0wy28Jlc",
      "business_status": "OPERATIONAL",
      "types": [
        "hospital",
        "doctor",
        "health",
        "point_of_interest",
        "establishment"
      ]
    },
    {
      "name": "Phelan Dental",
      "address": "1500 Heritage Way, Oakville, ON L6M 3H4, Canada",
      "phone": "(289) 813-8243",
      "lat": 43.4297033,
      "lng": -79.7467008,
      "place_id": "ChIJSXkPr2ZnK4gRZfk5uAnes6E",
      "business_status": "OPERATIONAL",
      "types": [
        "dentist",
        "doctor",
        "health",
        "point_of_interest",
        "establishment"
      ]
    },
    {
      "name": "Jaroszynski Greg Dr",
      "address": "1960 Appleby Line, Burlington, ON L7L 0B7, Canada",
      "phone": "(905) 333-5020",
      "lat": 43.3928736,
      "lng": -79.78983439999999,
      "place_id": "ChIJtdERbh-eLIgRCfHjGJyiGtY",
      "business_status": "OPERATIONAL",
      "types": [
        "doctor",
        "health",
        "point_of_interest",
        "establishment"
      ]
    },
    {
      "name": "Lad Rameeta Dr",
      "address": "2289 Fairview St Unit 428, Burlington, ON L7R 2E3, Canada",
      "phone": "(905) 681-1103",
      "lat": 43.34377660000001,
      "lng": -79.80283899999999,
      "place_id": "ChIJx4sS89xhK4gReMZj01ivjxI",
      "business_status": "OPERATIONAL",
      "types": [
        "doctor",
        "health",
        "point_of_interest",
        "establishment"
      ]
    },
    {
      "name": "Essential Hearing Svc",
      "address": "69 Main St S, St George, ON N0E 1N0, Canada",
      "phone": "(519) 448-1900",
      "lat": 43.2418575,
      "lng": -80.2521907,
      "place_id": "ChIJPe2a8Op6LIgRN3JI-vAJ7hk",
      "business_status": "OPERATIONAL",
      "types": [
        "doctor",
        "health",
        "point_of_interest",
        "establishment"
      ]
    },
    {
      "name": "Activa Clinics - Hamilton",
      "address": "50 Dundurn St S Unit B8, Hamilton, ON L8P 4W3, Canada",
      "phone": "(905) 529-1000",
      "lat": 43.261255,
      "lng": -79.8893696,
      "place_id": "ChIJE2VXkHmbLIgRTEP8v-jfNBU",
      "business_status": "OPERATIONAL",
      "types": [
        "physiotherapist",
        "doctor",
        "health",
        "point_of_interest",
        "establishment"
      ]
    },
    {
      "name": "Locke Medical Clinic",
      "address": "460 Main St E Suite 404, Hamilton, ON L8N 1K4, Canada",
      "phone": "(905) 570-0440",
      "lat": 43.2506206,
      "lng": -79.8518709,
      "place_id": "ChIJ98c60W-bLIgRYct-A3buDGU",
      "business_status": "OPERATIONAL",
      "types": [
        "hospital",
        "doctor",
        "health",
        "point_of_interest",
        "establishment"
      ]
    },
    {
      "name": "NeuPath Centre for Pain & Spine (Formerly CPM)",
      "address": "701 Main St W Suite 5, Hamilton, ON L8S 1A2, Canada",
      "phone": "(905) 574-4911",
      "lat": 43.2597709,
      "lng": -79.89759649999999,
      "place_id": "ChIJnQhBkLCELIgRKycyI4Ta1zk",
      "business_status": "OPERATIONAL",
      "types": [
        "doctor",
        "health",
        "point_of_interest",
        "establishment"
      ]
    },
    {
      "name": "Mount Royal Dental",
      "address": "2043 Mt Forest Dr, Burlington, ON L7P 1H4, Canada",
      "phone": "(905) 581-9912",
      "lat": 43.3476342,
      "lng": -79.8279154,
      "place_id": "ChIJ6QmKhvdhK4gRaUuzrZ6tms4",
      "business_status": "OPERATIONAL",
      "types": [
        "dentist",
        "doctor",
        "health",
        "point_of_interest",
        "establishment"
      ]
    },
    {
      "name": "Ancaster Eye Clinic",
      "address": "44 Wilson St E, Ancaster, ON L9G 5A8, Canada",
      "phone": "(905) 648-2020",
      "lat": 43.2188247,
      "lng": -79.9852149,
      "place_id": "ChIJY4iMkr-FLIgRhUeClUWKjEY",
      "business_status": "OPERATIONAL",
      "types": [
        "doctor",
        "health",
        "point_of_interest",
        "establishment"
      ]
    },
    {
      "name": "LASIK MD",
      "address": "276 Mud St W, Stoney Creek, ON L8J 3Z6, Canada",
      "phone": "(905) 578-1115",
      "lat": 43.1964129,
      "lng": -79.79368889999999,
      "place_id": "ChIJo7961ciZLIgRDCm4kKLa5gQ",
      "business_status": "OPERATIONAL",
      "types": [
        "doctor",
        "health",
        "point_of_interest",
        "establishment"
      ]
    },
    {
      "name": "Millcroft Physiotherapy & Sports Injury Clinic",
      "address": "3450 Dundas St, Burlington, ON L7M 4B8, Canada",
      "phone": "(905) 336-5851",
      "lat": 43.3902639,
      "lng": -79.8244698,
      "place_id": "ChIJj5z4VGFhK4gRwwGpavQQye4",
      "business_status": "OPERATIONAL",
      "types": [
        "physiotherapist",
        "doctor",
        "health",
        "point_of_interest",
        "establishment"
      ]
    },
    {
      "name": "Hear Right Canada",
      "address": "3480 Fairview St Unit 13, Burlington, ON L7N 2R5, Canada",
      "phone": "(905) 335-5252",
      "lat": 43.3575335,
      "lng": -79.78127219999999,
      "place_id": "ChIJf2Noy5NhK4gRYM_fxVIv5nY",
      "business_status": "OPERATIONAL",
      "types": [
        "doctor",
        "health",
        "point_of_interest",
        "store",
        "establishment"
      ]
    },
    {
      "name": "Greenbaum Joseph Dr",
      "address": "25 Charlton Ave E, Hamilton, ON L8N 1Y2, Canada",
      "phone": "(905) 522-7703",
      "lat": 43.2491573,
      "lng": -79.8707481,
      "place_id": "ChIJT-dskp6bLIgRFGPWkwPOXk4",
      "business_status": "OPERATIONAL",
      "types": [
        "doctor",
        "health",
        "point_of_interest",
        "establishment"
      ]
    },
    {
      "name": "Tread Well - Foot Clinic, Orthotics and Specialized Footwear",
      "address": "3305 Harvester Rd #100, Burlington, ON L7N 3N2, Canada",
      "phone": "(289) 337-1657",
      "lat": 43.3580784,
      "lng": -79.7924725,
      "place_id": "ChIJF2CD2rZhK4gRPY-ggpRaqPY",
      "business_status": "OPERATIONAL",
      "types": [
        "shoe_store",
        "doctor",
        "health",
        "point_of_interest",
        "store",
        "establishment"
      ]
    },
    {
      "name": "Downtown Dental of Hamilton",
      "address": "105 Main St E Suite 1111, Hamilton, ON L8N 1G6, Canada",
      "phone": "(905) 525-2545",
      "lat": 43.2547189,
      "lng": -79.8653551,
      "place_id": "ChIJuRGw0ZqbLIgRx0EkLsJE848",
      "business_status": "OPERATIONAL",
      "types": [
        "dentist",
        "doctor",
        "health",
        "point_of_interest",
        "establishment"
      ]
    },
    {
      "name": "Queenston Walk In Clinic",
      "address": "631 Queenston Rd #103, Hamilton, ON L8K 6R5, Canada",
      "phone": "(905) 578-9255",
      "lat": 43.2307241,
      "lng": -79.7751651,
      "place_id": "ChIJp7wun-WYLIgROxok3a4aYH0",
      "business_status": "OPERATIONAL",
      "types": [
        "doctor",
        "health",
        "point_of_interest",
        "establishment"
      ]
    },
    {
      "name": "Holly Medical Clinic (Check Website for Family Practice & Walk-In Hours)",
      "address": "611 Holly Ave, Milton, ON L9T 0K4, Canada",
      "phone": "(905) 878-0086",
      "lat": 43.5112095,
      "lng": -79.8554229,
      "place_id": "ChIJB42QL2tvK4gRGnKrGHUNl_o",
      "business_status": "OPERATIONAL",
      "types": [
        "hospital",
        "doctor",
        "health",
        "point_of_interest",
        "establishment"
      ]
    },
    {
      "name": "Upper Appleby Medical Associates. Drs. Simpson, Chemparathy, Shaikh & Sandino",
      "address": "1960 Appleby Line, Burlington, ON L7L 0B7, Canada",
      "phone": "(905) 315-9929",
      "lat": 43.3928736,
      "lng": -79.78983439999999,
      "place_id": "ChIJffIgjiFhK4gR17OdYAHe9M4",
      "business_status": "OPERATIONAL",
      "types": [
        "doctor",
        "health",
        "point_of_interest",
        "establishment"
      ]
    },
    {
      "name": "Dr V Dermatology",
      "address": "800 Queenston Rd #305, Hamilton, ON L8G 1A7, Canada",
      "phone": "(905) 549-1025",
      "lat": 43.2272018,
      "lng": -79.765157,
      "place_id": "ChIJA62Uk-WYLIgRWL7hpGp6_Lg",
      "business_status": "OPERATIONAL",
      "types": [
        "doctor",
        "health",
        "point_of_interest",
        "establishment"
      ]
    },
    {
      "name": "MM Family and Sleep Dentistry",
      "address": "325 Winterberry Dr #106, Stoney Creek, ON L8J 0B6, Canada",
      "phone": "(905) 573-6161",
      "lat": 43.1938597,
      "lng": -79.80678879999999,
      "place_id": "ChIJoXTJrMKZLIgRs8Po5ACr_7g",
      "business_status": "OPERATIONAL",
      "types": [
        "doctor",
        "dentist",
        "health",
        "point_of_interest",
        "establishment"
      ]
    },
    {
      "name": "Kim Cei-Whan Dr",
      "address": "1433 Ontario St, Burlington, ON L7S 1G5, Canada",
      "phone": "(905) 333-0622",
      "lat": 43.3255048,
      "lng": -79.8004859,
      "place_id": "ChIJU7V5NTueLIgR2_rWjUoaxmQ",
      "business_status": "OPERATIONAL",
      "types": [
        "doctor",
        "health",
        "point_of_interest",
        "establishment"
      ]
    },
    {
      "name": "HearingLife",
      "address": "25 Charlton Ave E #402, Hamilton, ON L8N 1Y2, Canada",
      "phone": "(905) 529-6251",
      "lat": 43.2498388,
      "lng": -79.8711028,
      "place_id": "ChIJT-dskp6bLIgRY62vxwf5omk",
      "business_status": "OPERATIONAL",
      "types": [
        "doctor",
        "health",
        "point_of_interest",
        "store",
        "establishment"
      ]
    },
    {
      "name": "One Stop Foot Clinic & Orthotic Centre",
      "address": "610 Concession St, Hamilton, ON L8V 1B3, Canada",
      "phone": "(905) 561-8633",
      "lat": 43.2403236,
      "lng": -79.84985569999999,
      "place_id": "ChIJeUGq58CbLIgRc6z6VVsnUVo",
      "business_status": "OPERATIONAL",
      "types": [
        "doctor",
        "health",
        "point_of_interest",
        "establishment"
      ]
    },
    {
      "name": "Hamilton Physio & Rehab - Hamilton Downtown James St S",
      "address": "200 James St S #207, Hamilton, ON L8P 3A9, Canada",
      "phone": "(905) 529-0521",
      "lat": 43.2506105,
      "lng": -79.87224499999999,
      "place_id": "ChIJPT7N1J2bLIgR-EIiiaT88GA",
      "business_status": "OPERATIONAL",
      "types": [
        "physiotherapist",
        "doctor",
        "health",
        "point_of_interest",
        "establishment"
      ]
    },
    {
      "name": "Family Dentistry on Locke",
      "address": "101 Locke St S Suite 1A, Hamilton, ON L8P 4A6, Canada",
      "phone": "(905) 525-9414",
      "lat": 43.257708,
      "lng": -79.8844326,
      "place_id": "ChIJ5b1Lu3mbLIgR9ZEFdu6LBTI",
      "business_status": "OPERATIONAL",
      "types": [
        "dentist",
        "doctor",
        "health",
        "point_of_interest",
        "establishment"
      ]
    },
    {
      "name": "Cusimano Steven L Dr",
      "address": "132 Parkdale Ave S, Hamilton, ON L8K 3P3, Canada",
      "phone": "(905) 547-6331",
      "lat": 43.2330853,
      "lng": -79.7936574,
      "place_id": "ChIJ6WiyNhqZLIgRcTx-IgDPQRE",
      "business_status": "OPERATIONAL",
      "types": [
        "doctor",
        "health",
        "point_of_interest",
        "establishment"
      ]
    },
    {
      "name": "Greenspoon A Dr",
      "address": "3rd floor, 304 Victoria Ave N, Hamilton, ON L8L 5G4, Canada",
      "phone": "(905) 529-5221",
      "lat": 43.2622017,
      "lng": -79.85247559999999,
      "place_id": "ChIJ-9m1IAucLIgRwU76E5EP5wg",
      "business_status": "OPERATIONAL",
      "types": [
        "doctor",
        "health",
        "point_of_interest",
        "establishment"
      ]
    },
    {
      "name": "Ancaster Acupuncture Clinic",
      "address": "737 Golf Links Rd, Ancaster, ON L9K 1L5, Canada",
      "phone": "(905) 648-5434",
      "lat": 43.2260482,
      "lng": -79.9538252,
      "place_id": "ChIJO-k2-SGFLIgRHHR9wWQ0EMA",
      "business_status": "OPERATIONAL",
      "types": [
        "physiotherapist",
        "doctor",
        "health",
        "point_of_interest",
        "establishment"
      ]
    },
    {
      "name": "Collective Footcare and Orthotics",
      "address": "1423 Upper Ottawa St Units 4 & 5, Hamilton, ON L8W 3J6, Canada",
      "phone": "(905) 527-4817",
      "lat": 43.1975753,
      "lng": -79.8405042,
      "place_id": "ChIJ5-O3tfmYLIgR8fgUdDwYbEM",
      "business_status": "OPERATIONAL",
      "types": [
        "doctor",
        "health",
        "point_of_interest",
        "establishment"
      ]
    },
    {
      "name": "Heritage Hill Dental Care",
      "address": "280 Mud St W, Stoney Creek, ON L8J 3Z6, Canada",
      "phone": "(905) 560-7057",
      "lat": 43.1964422,
      "lng": -79.7941329,
      "place_id": "ChIJIfGa08iZLIgRnZObtmdv8os",
      "business_status": "OPERATIONAL",
      "types": [
        "doctor",
        "dentist",
        "health",
        "point_of_interest",
        "establishment"
      ]
    },
    {
      "name": "Masters Men's Clinic",
      "address": "960 Cumberland Ave Suite E, Burlington, ON L7N 3J6, Canada",
      "phone": "(905) 639-2571",
      "lat": 43.35716180000001,
      "lng": -79.79517659999999,
      "place_id": "ChIJtdERbh-eLIgRAf7YtSM0Ons",
      "business_status": "OPERATIONAL",
      "types": [
        "doctor",
        "health",
        "point_of_interest",
        "establishment"
      ]
    },
    {
      "name": "Aldershot Audiology",
      "address": "18 Plains Rd W, Burlington, ON L7T 0B3, Canada",
      "phone": "(905) 635-4327",
      "lat": 43.3062145,
      "lng": -79.8529859,
      "place_id": "ChIJxV9MG-KdLIgRenWcpHHnM8A",
      "business_status": "OPERATIONAL",
      "types": [
        "doctor",
        "health",
        "point_of_interest",
        "store",
        "establishment"
      ]
    },
    {
      "name": "Izzi Dental care",
      "address": "1575 Upper Ottawa St Unit 2B, Hamilton, ON L8W 3E2, Canada",
      "phone": "(905) 318-5266",
      "lat": 43.1907834,
      "lng": -79.8428285,
      "place_id": "ChIJJf5uNQ-aLIgR8IF6Km5eB_0",
      "business_status": "OPERATIONAL",
      "types": [
        "dentist",
        "doctor",
        "health",
        "point_of_interest",
        "establishment"
      ]
    },
    {
      "name": "Dr. Sarah Pannozzo, My Children's Dentist",
      "address": "1447 Upper Ottawa St Unit 13/14, Hamilton, ON L8W 3J6, Canada",
      "phone": "(905) 387-1115",
      "lat": 43.1960139,
      "lng": -79.84091169999999,
      "place_id": "ChIJcQ_3D06aLIgRCdXB6ZJmvX8",
      "business_status": "OPERATIONAL",
      "types": [
        "dentist",
        "point_of_interest",
        "doctor",
        "health",
        "establishment"
      ]
    },
    {
      "name": "Csordas Andrea Dr",
      "address": "325 Winterberry Dr #204, Hamilton, ON L8J 0B6, Canada",
      "phone": "(905) 318-5343",
      "lat": 43.1939077,
      "lng": -79.8069546,
      "place_id": "ChIJfVaKk6KbLIgRVnleb9yZDYY",
      "business_status": "OPERATIONAL",
      "types": [
        "doctor",
        "point_of_interest",
        "health",
        "establishment"
      ]
    },
    {
      "name": "HearingLife",
      "address": "160 Centennial Pkwy N Unit #1, Hamilton, ON L8E 1H9, Canada",
      "phone": "(905) 662-8275",
      "lat": 43.2338417,
      "lng": -79.7612663,
      "place_id": "ChIJ35vNOpWYLIgRvfUhfqAxswE",
      "business_status": "OPERATIONAL",
      "types": [
        "store",
        "point_of_interest",
        "doctor",
        "health",
        "establishment"
      ]
    },
    {
      "name": "New Leaf Homeopathic Family Medicine",
      "address": "2012 Victoria Ave, Burlington, ON L7R 1R4, Canada",
      "phone": "(289) 337-4223",
      "lat": 43.330002,
      "lng": -79.803121,
      "place_id": "ChIJ9bIaKHWeLIgRj6_SFhGj54U",
      "business_status": "OPERATIONAL",
      "types": [
        "hospital",
        "point_of_interest",
        "doctor",
        "health",
        "establishment"
      ]
    },
    {
      "name": "Dr Arora",
      "address": "867 Upper Paradise Rd, Hamilton, ON L9C 5R3, Canada",
      "phone": "(905) 574-2500",
      "lat": 43.2193121,
      "lng": -79.9175801,
      "place_id": "ChIJb0z1Fc2aLIgRmRKUZpk-2TA",
      "business_status": "OPERATIONAL",
      "types": [
        "doctor",
        "point_of_interest",
        "health",
        "establishment"
      ]
    },
    {
      "name": "Garth Dental Hamilton",
      "address": "1300 Garth St #10, Hamilton, ON L9C 4L7, Canada",
      "phone": "(289) 768-7691",
      "lat": 43.2211775,
      "lng": -79.9069932,
      "place_id": "ChIJF8z0sdqaLIgRVJJXf4xJA1Q",
      "business_status": "OPERATIONAL",
      "types": [
        "dentist",
        "point_of_interest",
        "doctor",
        "health",
        "establishment"
      ]
    },
    {
      "name": "Dr. Greg Curnew, MD | Prevention | Diagnostics | Treatment",
      "address": "232 Cannon St E #2A, Hamilton, ON L8L 0A0, Canada",
      "phone": "(905) 667-0783",
      "lat": 43.2577273,
      "lng": -79.8570776,
      "place_id": "ChIJ-9m1IAucLIgRlL_XcENvukk",
      "business_status": "OPERATIONAL",
      "types": [
        "doctor",
        "point_of_interest",
        "health",
        "establishment"
      ]
    },
    {
      "name": "Joseph Kozak MD",
      "address": "3155 Harvester Rd, Burlington, ON L7N 3V2, Canada",
      "phone": "(905) 333-0259",
      "lat": 43.3541897,
      "lng": -79.7974097,
      "place_id": "ChIJSesftKw3K4gRgFGGlyr3SU0",
      "business_status": "OPERATIONAL",
      "types": [
        "doctor",
        "point_of_interest",
        "health",
        "establishment"
      ]
    },
    {
      "name": "McCallum K Dr",
      "address": "161 King St W, Dundas, ON L9H 1X7, Canada",
      "phone": "(905) 627-1555",
      "lat": 43.2671593,
      "lng": -79.9605979,
      "place_id": "ChIJCdnjW-qFLIgRQ-AqKvHV3-0",
      "business_status": "OPERATIONAL",
      "types": [
        "doctor",
        "point_of_interest",
        "health",
        "establishment"
      ]
    },
    {
      "name": "Advanced Foot Care And Orthotics",
      "address": "327 Dundas St E, Waterdown, ON L0R 2H0, Canada",
      "phone": "(905) 690-7775",
      "lat": 43.3346497,
      "lng": -79.8917895,
      "place_id": "ChIJpVNPxmmdLIgRHYtXQZ3Ubuk",
      "business_status": "OPERATIONAL",
      "types": [
        "point_of_interest",
        "doctor",
        "health",
        "establishment"
      ]
    },
    {
      "name": "HearingLife",
      "address": "880 Upper Wentworth St, Hamilton, ON L9A 5H2, Canada",
      "phone": "(905) 574-9196",
      "lat": 43.2213495,
      "lng": -79.8635566,
      "place_id": "ChIJMbLNDE2aLIgRxJK66lvNKKc",
      "business_status": "OPERATIONAL",
      "types": [
        "store",
        "point_of_interest",
        "doctor",
        "health",
        "establishment"
      ]
    },
    {
      "name": "The Travel Doctor",
      "address": "605 James St N, Hamilton, ON L8L 1J9, Canada",
      "phone": "(905) 529-8558",
      "lat": 43.2732517,
      "lng": -79.8622571,
      "place_id": "ChIJOTXqGHCcLIgRa2pnbyIuAZM",
      "business_status": "OPERATIONAL",
      "types": [
        "doctor",
        "point_of_interest",
        "health",
        "establishment"
      ]
    },
    {
      "name": "Musicians' Clinics Of Canada",
      "address": "565 Sanatorium Rd, Hamilton, ON L9C 7N4, Canada",
      "phone": "(905) 574-5444",
      "lat": 43.2399198,
      "lng": -79.9154209,
      "place_id": "ChIJRayA9C2bLIgRpeK1SDHdgWI",
      "business_status": "OPERATIONAL",
      "types": [
        "doctor",
        "point_of_interest",
        "health",
        "establishment"
      ]
    },
    {
      "name": "Central Burlington Dental Care",
      "address": "6-760 Brant St, Burlington, ON L7S 1X7, Canada",
      "phone": "(905) 632-9336",
      "lat": 43.3323905,
      "lng": -79.80896419999999,
      "place_id": "ChIJ0d6Uyy-eLIgRtCHLuhYnmjI",
      "business_status": "OPERATIONAL",
      "types": [
        "dentist",
        "point_of_interest",
        "doctor",
        "health",
        "establishment"
      ]
    },
    {
      "name": "Ohson, Taran & Ravinder Dr.",
      "address": "565 Sanatorium Rd #102, Hamilton, ON L9C 7N4, Canada",
      "phone": "(905) 318-1444",
      "lat": 43.23999,
      "lng": -79.91543999999999,
      "place_id": "ChIJYeDT2XyaLIgR6MYTYGrtz-Y",
      "business_status": "OPERATIONAL",
      "types": [
        "point_of_interest",
        "doctor",
        "health",
        "establishment"
      ]
    },
    {
      "name": "Mullens Jean Dr",
      "address": "576 Main St E, Hamilton, ON L8M 1J2, Canada",
      "phone": "(905) 528-5292",
      "lat": 43.24951189999999,
      "lng": -79.8475526,
      "place_id": "ChIJg_kLFuybLIgR2MkX6nE8PdI",
      "business_status": "OPERATIONAL",
      "types": [
        "doctor",
        "point_of_interest",
        "health",
        "establishment"
      ]
    },
    {
      "name": "Serenity Hearing - Hamilton (West)",
      "address": "723 Rymal Rd W, Hamilton, ON L9B 2W2, Canada",
      "phone": "(289) 768-8971",
      "lat": 43.20987909999999,
      "lng": -79.9264939,
      "place_id": "ChIJuyZHmUmFLIgRu20jWfkssiU",
      "business_status": "OPERATIONAL",
      "types": [
        "store",
        "point_of_interest",
        "doctor",
        "health",
        "establishment"
      ]
    },
    {
      "name": "Shannon Servos Phd",
      "address": "2349 Fairview St, Burlington, ON L7R 2E3, Canada",
      "phone": "(905) 407-3909",
      "lat": 43.3446451,
      "lng": -79.8017007,
      "place_id": "ChIJSWoHVNthK4gRHsg-EJLsKTM",
      "business_status": "OPERATIONAL",
      "types": [
        "point_of_interest",
        "doctor",
        "health",
        "establishment"
      ]
    },
    {
      "name": "Hamilton Medical Research Group",
      "address": "700 Main St E, Hamilton, ON L8M 1K7, Canada",
      "phone": "(905) 545-1376",
      "lat": 43.2480395,
      "lng": -79.84188449999999,
      "place_id": "ChIJSeHzS--bLIgRYXql4E2seNI",
      "business_status": "OPERATIONAL",
      "types": [
        "hospital",
        "point_of_interest",
        "doctor",
        "health",
        "establishment"
      ]
    },
    {
      "name": "Nayar a Dr",
      "address": "3155 Harvester Rd, Burlington, ON L7N 3V2, Canada",
      "phone": "(905) 632-4640",
      "lat": 43.3541897,
      "lng": -79.7974097,
      "place_id": "ChIJl9APCLhhK4gREUa-ijUeT34",
      "business_status": "OPERATIONAL",
      "types": [
        "doctor",
        "point_of_interest",
        "health",
        "establishment"
      ]
    }
  ]
}